{
    "0": {
      "location": "Địa đạo Củ Chi",
      "lat": "11.144151",
      "long": "106.464553"
    },
    "1": {
      "location": "Bưu Điện Thành Phố",
      "lat": "10.781087",
      "long": "106.699856"
    },
    "2": {
      "location": "Dinh Độc Lập",
      "lat": "10.777529",
      "long": "106.695818"
    },
    "3": {
      "location": "Nhà Thờ Đức Bà",
      "lat": "10.779722",
      "long": "106.699009"
    },
    "4": {
      "location": "Tòa Nhà Bitexco",
      "lat": "10.771796",
      "long": "106.704325"
    },
    "5": {
      "location": "Phố Đi Bộ Nguyễn Huệ",
      "lat": "10.773652",
      "long": "106.704046"
    },
    "6": {
      "location": "Chùa Hoàng Pháp",
      "lat": "10.900273",
      "long": "106.581713"
    },
    "7": {
      "location": "Chùa Bà Thiên Hậu",
      "lat": "10.753499",
      "long": "106.661141"
    },
    "8": {
      "location": "Chùa Vĩnh Nghiêm",
      "lat": "10.790362",
      "long": "106.682256"
    },
    "9": {
      "location": "Đường Sách Nguyễn Văn Bình",
      "lat": "10.780982",
      "long": "106.700071"
    }
  }